{"_id":{"$oid":"5817b976148a001b53b08dc3"},"containerId":"GuidoSelaCome","percentageFull":50,"address":"Paraguay 1403, Corrientes, Corrientes","__v":0}
{"_id":{"$oid":"58191f1d9c7ac03167aa1771"},"containerId":"Holis","percentageFull":50,"lng":-58.83191009999999,"lat":-27.4624806,"address":"Placido Martinez 1440, Corrientes, Corrientes","__v":0}
{"_id":{"$oid":"58191f429c7ac03167aa1772"},"containerId":"Holas2","percentageFull":50,"lng":-58.8460541,"lat":-27.4700435,"address":"Bolivar 375, Corrientes, Corrientes","__v":0}
{"_id":{"$oid":"58191f4f9c7ac03167aa1773"},"containerId":"TengoHambre","percentageFull":50,"lng":-58.841652,"lat":-27.467217,"address":"Junin 700, Corrientes, Corrientes","__v":0}
{"_id":{"$oid":"581fe58af753db1f97f9705e"},"containerId":"JonaComprateUnaPeluca","percentageFull":40,"lng":-58.83328210000001,"lat":-27.4712216,"address":"Bolivar 1403, Corrientes, Corrientes","__v":0}
{"_id":{"$oid":"581fe5c0f753db1f97f9705f"},"containerId":"QuieroVino","percentageFull":30,"lng":-58.82693930000001,"lat":-27.4718807,"address":"Bolivar 1903, Corrientes, Corrientes","__v":0}
{"_id":{"$oid":"581fe5d7f753db1f97f97060"},"containerId":"EsteSiEstaBienLleno","percentageFull":100,"lng":-58.8469922,"lat":-27.4699914,"address":"Bolivar 300, Corrientes, Corrientes","__v":0}
{"_id":{"$oid":"58239833623f070ed0b4167f"},"containerId":"hhgghhg","percentageFull":35,"lng":-59.25713,"lat":-29.13750049999999,"address":"Paraguay 100, Corrientes, Corrientes","__v":0}
{"_id":{"$oid":"58251c2579400c11a7ac8df0"},"containerId":"otroId","percentageFull":75,"lng":-58.84007399999999,"lat":-27.4625223,"address":"Buenos Aires 480, Corrientes, Corrientes","__v":0}
{"_id":{"$oid":"58251ce20a852a11e1fee68f"},"containerId":"otroId","percentageFull":75,"lng":-58.84007399999999,"lat":-27.4625223,"address":"Buenos Aired480, Corrientes, Corrientes","__v":0}
{"_id":{"$oid":"58251cf00a852a11e1fee690"},"containerId":"otroId","percentageFull":75,"lng":-58.8306349,"lat":-27.4692131,"address":"Buenos gvghbhb, Corrientes, Corrientes","__v":0}
